[
    {
        "name": "Compass",
        "category": "Rivers",
        "city": "https://www.google.co.jp/maps/place/%E3%83%95%E3%82%A1%E3%83%9F%E3%83%AA%E3%83%BC%E3%83%9E%E3%83%BC%E3%83%88%E5%AE%89%E5%9F%8E%E5%A4%A7%E5%B2%A1%E7%94%BA%E5%BA%97/@34.9550078,137.1033964,15z/data=!4m5!3m4!1s0x6004984c434beac1:0x7cf8217fa6327591!8m2!3d34.958591!4d137.1003038?hl=ja",
        "state": "https://www.instagram.com/select_shop_compass/",
        "id": 1001,
        "isFeatured": true,
        "isFavorite": true,
        "park": "名古屋市中区栄3-22-16 有田ビル1F",
        "coordinates": {
            "longitude": 136.9034628,
            "latitude": 35.1638713
        },
        "imageName": "stmarylake"
    },
    {
        "name": "store in history",
        "category": "Lakes",
        "city": "Port Alsworth",
        "state": "https://www.instagram.com/store_in_history/",
        "id": 1002,
        "isFeatured": false,
        "isFavorite": true,
        "park": "名古屋市中区大須３丁目１３−２８",
        "coordinates": {
            "longitude": 136.9031975,
            "latitude": 35.16063219999999
        },
        "imageName": "stmarylake"
    },
    {
        "name": "CLOVER",
        "category": "Mountains",
        "city": "Skagway",
        "state": "https://www.instagram.com/clover_nagoya/",
        "id": 1003,
        "isFeatured": false,
        "isFavorite": true,
        "park": "名古屋市中区千代田4-8-12",
        "coordinates": {
            "longitude": 136.9127249,
            "latitude": 35.1518333,
        },
        "imageName": "stmarylake"
    },
    {
        "name": "BLOWZ矢場店",
        "category": "Lakes",
        "city": "Browning",
        "state": "https://www.instagram.com/blowz_yaba/",
        "id": 1004,
        "isFeatured": true,
        "isFavorite": true,
        "park": "名古屋市中区栄3-31-13加地ビルＢ1",
        "coordinates": {
            "longitude": 136.9083518,
            "latitude": 35.1632885
        },
        "imageName": "stmarylake"
    },
    
    {
        "name": "パナマボーイ名古屋店",
        "category": "Lakes",
        "city": "Browning",
        "state": "https://www.instagram.com/nagoya_panama/",
        "id": 1005,
        "isFeatured": true,
        "isFavorite": true,
        "park": "名古屋市中区大須３丁目16-8",
        "coordinates": {
            "longitude": 136.9035231,
            "latitude": 35.1603509
        },
        "imageName": "stmarylake"
    },
    
    {
        "name": "CRUNCH",
        "category": "Lakes",
        "city": "Browning",
        "state": "https://www.instagram.com/crunchladys/?hl=ja",
        "id": 1006,
        "isFeatured": true,
        "isFavorite": true,
        "park": "名古屋市中区大須3-41-22",
        "coordinates": {
            "longitude": 136.9032681,
            "latitude": 35.1580517
        },
        "imageName": "stmarylake"
    },
    
    
    
    {
        "name": "ルリエ・レ・クール",
        "category": "Lakes",
        "city": "Browning",
        "state": "https://www.instagram.com/relierlescoeurs/",
        "id": 1007,
        "isFeatured": true,
        "isFavorite": true,
        "park": "名古屋市中区大須3丁目36-1",
        "coordinates": {
            "longitude": 136.9026193,
            "latitude": 35.1589389
        },
        "imageName": "stmarylake"
    },
    
    {
        "name": "The Other",
        "category": "Lakes",
        "city": "Browning",
        "state": "https://www.instagram.com/theother_oosu/",
        "id": 1008,
        "isFeatured": true,
        "isFavorite": true,
        "park": "名古屋市中区大須 3-42-6",
        "coordinates": {
            "longitude": 136.9038225,
            "latitude": 35.1582845
        },
        "imageName": "stmarylake"
    },
    
    
    {
        "name": "LOVEVEGAS",
        "category": "Lakes",
        "city": "Browning",
        "state": "https://www.instagram.com/lovevegas_nagoya/",
        "id": 1009,
        "isFeatured": true,
        "isFavorite": true,
        "park": "名古屋市中区大須3-13-38 第二水野ビル1F 2F",
        "coordinates": {
            "longitude": 136.9033126,
            "latitude": 35.1609407
        },
        "imageName": "stmarylake"
    },
    
    {
        "name": "Coromark",
        "category": "Lakes",
        "city": "Browning",
        "state": "https://www.instagram.com/___coromark___/",
        "id": 1010,
        "isFeatured": true,
        "isFavorite": true,
        "park": "名古屋市中区大須３丁目４１−１０",
        "coordinates": {
            "longitude": 136.9030161,
            "latitude": 35.1583486
        },
        "imageName": "stmarylake"
    },


    
    
    {
        "name": "ROCAT",
        "category": "Lakes",
        "city": "xaeb3e7506e6a552c!8m2!3d35.1",
        "state": "https://www.instagram.com/osu_rocat_ladys/?hl=ja",
        "id": 1012,
        "isFeatured": true,
        "isFavorite": true,
        "park": "名古屋市中区大須３丁目１５−３８",
        "coordinates": {
            "longitude": 136.9023311,
            "latitude": 35.1604088
        },
        "imageName": "stmarylake"
    },
    
    {
        "name": "Archaic",
        "category": "Lakes",
        "city": "xaeb3e7506e6a552c!8m2!3d35.1",
        "state": "https://www.instagram.com/archaic_vintage_clothing/?utm_source=ig_embed",
        "id": 1013,
        "isFeatured": true,
        "isFavorite": true,
        "park": "名古屋市中区大須三丁目16-5第三水野ビル２階",
        "coordinates": {
            "longitude": 136.9028186,
            "latitude": 35.1603951
        },
        "imageName": "stmarylake"
    },
    
    
    {
        "name": "BUZZ",
        "category": "Lakes",
        "city": "xaeb3e7506e6a552c!8m2!3d35.1",
        "state": "https://www.instagram.com/b_u_z_z_3/?utm_source=ig_embed",
        "id": 1014,
        "isFeatured": true,
        "isFavorite": true,
        "park": "名古屋市中区大須3-37-42",
        "coordinates": {
            "longitude": 136.9017524,
            "latitude": 35.15881299999999
        },
        "imageName": "stmarylake"
    },
    
    
    {
        "name": "CARNIVAL",
        "category": "Lakes",
        "city": "xaeb3e7506e6a552c!8m2!3d35.1",
        "state": "https://www.instagram.com/carnival_nagoya/?utm_source=ig_embed",
        "id": 1015,
        "isFeatured": true,
        "isFavorite": true,
        "park": "名古屋市中区大須3-5-49 第二ハセビル1B",
        "coordinates": {
            "longitude": 136.9053009,
            "latitude": 35.1618218
        },
        "imageName": "stmarylake"
    },
    
    
    {
        "name": "Feeet",
        "category": "Lakes",
        "city": "xaeb3e7506e6a552c!8m2!3d35.1",
        "state": "https://www.instagram.com/feeet.webshop/?utm_source=ig_embed",
        "id": 1016,
        "isFeatured": true,
        "isFavorite": true,
        "park": "名古屋市中区大須3-17-1 赤門ブラザービル1階",
        "coordinates": {
            "longitude": 136.903766,
            "latitude": 35.1603213
        },
        "imageName": "stmarylake"
    },

    
    {
        "name": "fabchic",
        "category": "Lakes",
        "city": "xaeb3e7506e6a552c!8m2!3d35.1",
        "state": "https://www.instagram.com/fabchic_osu/?utm_source=ig_embed",
        "id": 1017,
        "isFeatured": true,
        "isFavorite": true,
        "park": "名古屋市中区大須三丁目37番37号",
        "coordinates": {
            "longitude": 136.9017692,
            "latitude": 35.1586983
        },
        "imageName": "stmarylake"
    },
    
    
    {
        "name": "the poem",
        "category": "Lakes",
        "city": "xaeb3e7506e6a552c!8m2!3d35.1",
        "state": "https://www.instagram.com/thepoemclothingstore/?utm_source=ig_embed",
        "id": 1018,
        "isFeatured": true,
        "isFavorite": true,
        "park": "名古屋市中区大須2-12-9",
        "coordinates": {
            "longitude": 136.8997964,
            "latitude": 35.1605634
        },
        "imageName": "stmarylake"
    },

    
    {
        "name": "métropolitain",
        "category": "Lakes",
        "city": "xaeb3e7506e6a552c!8m2!3d35.1",
        "state": "https://www.instagram.com/metropolitain.jp/?utm_source=ig_embed",
        "id": 1019,
        "isFeatured": true,
        "isFavorite": true,
        "park": "名古屋市中区大須2-12-9",
        "coordinates": {
            "longitude": 136.9037755,
            "latitude": 35.16008860000001
        },
        "imageName": "stmarylake"
    },
    
    
    {
        "name": "YES AND CO",
        "category": "Lakes",
        "city": "xaeb3e7506e6a552c!8m2!3d35.1",
        "state": "https://www.instagram.com/yesandco/?utm_source=ig_embed",
        "id": 1020,
        "isFeatured": true,
        "isFavorite": true,
        "park": "名古屋市中区大須2-15-42",
        "coordinates": {
            "longitude": 136.9012364,
            "latitude": 35.1602682
        },
        "imageName": "stmarylake"
    },
    
    {
        "name": "さぼてん洋品店",
        "category": "Lakes",
        "city": "xaeb3e7506e6a552c!8m2!3d35.1",
        "state": "https://www.instagram.com/sabosabo7008/?utm_source=ig_embed",
        "id": 1021,
        "isFeatured": true,
        "isFavorite": true,
        "park": "名古屋市中区大須3-37-46",
        "coordinates": {
            "longitude": 136.901787,
            "latitude": 35.1589554
        },
        "imageName": "stmarylake"
    },
    
    
    {
        "name": "コンパル大須本店",
        "category": "Lakes",
        "city": "https://www.google.co.jp/maps/place/コンパル+大須本店/@35.1593993,136.9025294,17z/data=!3m1!4b1!4m5!3m4!1s0x600370cb7d3c6087:0xaeb3e7506e6a552c!8m2!3d35.1593993!4d136.9047181?hl=ja",
        "state": "https://www.instagram.com/explore/locations/103655547721192/?hl=ja",
        "id": 1011,
        "isFeatured": true,
        "isFavorite": false,
        "park": "名古屋市中区大須3-20-19",
        "coordinates": {
            "longitude": 136.904734,
            "latitude": 35.159413
        },
        "imageName": "stmarylake"
    },
    
    
    {
        "name": "吾妻茶寮",
        "category": "Lakes",
        "city": "xaeb3e7506e6a552c!8m2!3d35.1",
        "state": "https://www.instagram.com/azuma_saryo/",
        "id": 1028,
        "isFeatured": true,
        "isFavorite": false,
        "park": "名古屋市中区大須3-22-33 トヒチビル1階",
        "coordinates": {
            "longitude": 136.9037755,
            "latitude": 35.1598431
        },
        "imageName": "stmarylake"
    },
    
    
    {
        "name": "珈琲ぶりこ",
        "category": "Lakes",
        "city": "xaeb3e7506e6a552c!8m2!3d35.1",
        "state": "https://www.instagram.com/bricocoffee/",
        "id": 1022,
        "isFeatured": true,
        "isFavorite": false,
        "park": "名古屋市中区大須3-35-22",
        "coordinates": {
            "longitude": 136.903686,
            "latitude": 35.1584611
        },
        "imageName": "stmarylake"
    },
    
    {
        "name": "カンノンコーヒー",
        "category": "Lakes",
        "city": "xaeb3e7506e6a552c!8m2!3d35.1",
        "state": "https://www.instagram.com/explore/locations/360204041/kannon-coffee/",
        "id": 1023,
        "isFeatured": true,
        "isFavorite": false,
        "park": "名古屋市中区大須2-6-22",
        "coordinates": {
            "longitude": 136.9016339,
            "latitude": 35.1606931
        },
        "imageName": "stmarylake"
    },
    
    
    {
        "name": "スマッシュヘッド",
        "category": "Lakes",
        "city": "xaeb3e7506e6a552c!8m2!3d35.1",
        "state": "https://www.instagram.com/smash_head/?utm_source=ig_embed",
        "id": 1024,
        "isFeatured": true,
        "isFavorite": false,
        "park": "名古屋市中区大須2-21-90",
        "coordinates": {
            "longitude": 136.8993812,
            "latitude": 35.1602246
        },
        "imageName": "stmarylake"
    },
    
    
    {
        "name": "eric-life",
        "category": "Lakes",
        "city": "xaeb3e7506e6a552c!8m2!3d35.1",
        "state": "https://www.instagram.com/ericcafemolly/",
        "id": 1025,
        "isFeatured": true,
        "isFavorite": false,
        "park": "名古屋市中区大須2-11-18 ユーアイ大須ビル 1F",
        "coordinates": {
            "longitude": 136.89917,
            "latitude": 35.1604431
        },
        "imageName": "stmarylake"
    },
    
    
    {
        "name": "The Y's CAFE",
        "category": "Lakes",
        "city": "xaeb3e7506e6a552c!8m2!3d35.1",
        "state": "https://www.instagram.com/the_ys_cafe/",
        "id": 1026,
        "isFeatured": true,
        "isFavorite": false,
        "park": "名古屋市中区大須1丁目7-26",
        "coordinates": {
            "longitude": 136.8978684,
            "latitude": 35.1613385
        },
        "imageName": "stmarylake"
    },
    
    
    {
        "name": "ダブルトールカフェ 名古屋",
        "category": "Lakes",
        "city": "xaeb3e7506e6a552c!8m2!3d35.1",
        "state": "https://www.instagram.com/doubletall_cafe_nagoya/",
        "id": 1027,
        "isFeatured": true,
        "isFavorite": false,
        "park": "名古屋市中区大須4-2-21",
        "coordinates": {
            "longitude": 136.9071064,
            "latitude": 35.16054510000001
        },
        "imageName": "stmarylake"
    },
    
    
    {
        "name": "THE SHOP 十二ヵ月",
        "category": "Lakes",
        "city": "xaeb3e7506e6a552c!8m2!3d35.1",
        "state": "https://www.instagram.com/explore/locations/1861599584096985/the-shop/",
        "id": 1029,
        "isFeatured": true,
        "isFavorite": false,
        "park": "名古屋市中区上前津１-３-２ 村上ビル１F",
        "coordinates": {
            "longitude": 136.9034979,
            "latitude": 35.157331
        },
        "imageName": "stmarylake"
    },
    
    {
        "name": "カフェキナリ",
        "category": "Lakes",
        "city": "xaeb3e7506e6a552c!8m2!3d35.1",
        "state": "https://www.instagram.com/explore/locations/625767805/",
        "id": 1030,
        "isFeatured": true,
        "isFavorite": false,
        "park": "名古屋市中区大須二丁目23番34号大須GATEビル３F",
        "coordinates": {
            "longitude": 136.8987164,
            "latitude": 35.1596666
        },
        "imageName": "stmarylake"
    },

    
    {
        "name": "くつろぎ食堂Ami",
        "category": "Lakes",
        "city": "xaeb3e7506e6a552c!8m2!3d35.1",
        "state": "https://www.instagram.com/explore/locations/264497839/ami/",
        "id": 1031,
        "isFeatured": true,
        "isFavorite": false,
        "park": "名古屋市中区大須4-1-32 ",
        "coordinates": {
            "longitude": 136.9071181,
            "latitude": 35.1615082
        },
        "imageName": "stmarylake"
    },
    
    {
        "name": "cafe molly",
        "category": "Lakes",
        "city": "xaeb3e7506e6a552c!8m2!3d35.1",
        "state": "https://www.instagram.com/ericcafemolly/",
        "id": 1032,
        "isFeatured": true,
        "isFavorite": false,
        "park": "名古屋市中区大須2–11–18 2F",
        "coordinates": {
            "longitude": 136.8991131,
            "latitude": 35.1604301
        },
        "imageName": "stmarylake"
    },

    
]


